{
  "WA20250902120541": {
    "order_id": "WA20250902120541",
    "user_id": "web_user",
    "items": [
      {
        "name": "Samsung Galaxy Earbuds",
        "price": 1299.0,
        "quantity": 1,
        "description": "Wireless earbuds with ANC",
        "id": "9183f504",
        "added_at": "2025-09-02T12:05:34.233329"
      }
    ],
    "subtotal": 1299.0,
    "delivery_cost": 35.0,
    "total": 1334.0,
    "status": "pending",
    "created_at": "2025-09-02T12:05:41.038358",
    "delivery": {
      "type": "paxi_pickup",
      "pickup_point": {
        "pickup_points": [
          {
            "id": "CPT001",
            "name": "Pick n Pay - Claremont",
            "address": "Cavendish Square, Claremont, Cape Town",
            "suburb": "Claremont",
            "city": "Cape Town",
            "province": "Western Cape",
            "postal_code": "7708",
            "phone": "+27 21 674 4000",
            "hours": "Mon-Fri: 8:00-20:00, Sat: 8:00-18:00, Sun: 9:00-17:00",
            "services": [
              "pickup",
              "collection",
              "returns"
            ]
          },
          {
            "id": "CPT002",
            "name": "Shoprite - Wynberg",
            "address": "Maynardville Park, Wynberg, Cape Town",
            "suburb": "Wynberg",
            "city": "Cape Town",
            "province": "Western Cape",
            "postal_code": "7800",
            "phone": "+27 21 761 7000",
            "hours": "Mon-Sun: 8:00-20:00",
            "services": [
              "pickup",
              "collection"
            ]
          },
          {
            "id": "JHB001",
            "name": "Pick n Pay - Sandton City",
            "address": "Sandton City Shopping Centre, Sandton",
            "suburb": "Sandton",
            "city": "Johannesburg",
            "province": "Gauteng",
            "postal_code": "2196",
            "phone": "+27 11 784 7200",
            "hours": "Mon-Fri: 9:00-21:00, Sat-Sun: 9:00-19:00",
            "services": [
              "pickup",
              "collection",
              "returns"
            ]
          }
        ]
      },
      "customer": {
        "name": "John Doe",
        "phone": "27812345678",
        "email": "john@example.com"
      }
    },
    "paxi": {
      "tracking_number": "PX202509020126",
      "status": "created",
      "estimated_delivery": "2025-09-04"
    }
  },
  "WA20250902120803": {
    "order_id": "WA20250902120803",
    "user_id": "web_user",
    "items": [
      {
        "name": "iPhone 15 Pro",
        "price": 18999.0,
        "quantity": 1,
        "description": "Latest iPhone with Pro features",
        "id": "a3b3b961",
        "added_at": "2025-09-02T12:07:44.564659"
      }
    ],
    "subtotal": 18999.0,
    "delivery_cost": 35.0,
    "total": 19034.0,
    "status": "pending",
    "created_at": "2025-09-02T12:08:03.080509",
    "delivery": {
      "type": "paxi_pickup",
      "pickup_point": {
        "pickup_points": [
          {
            "id": "CPT001",
            "name": "Pick n Pay - Claremont",
            "address": "Cavendish Square, Claremont, Cape Town",
            "suburb": "Claremont",
            "city": "Cape Town",
            "province": "Western Cape",
            "postal_code": "7708",
            "phone": "+27 21 674 4000",
            "hours": "Mon-Fri: 8:00-20:00, Sat: 8:00-18:00, Sun: 9:00-17:00",
            "services": [
              "pickup",
              "collection",
              "returns"
            ]
          },
          {
            "id": "CPT002",
            "name": "Shoprite - Wynberg",
            "address": "Maynardville Park, Wynberg, Cape Town",
            "suburb": "Wynberg",
            "city": "Cape Town",
            "province": "Western Cape",
            "postal_code": "7800",
            "phone": "+27 21 761 7000",
            "hours": "Mon-Sun: 8:00-20:00",
            "services": [
              "pickup",
              "collection"
            ]
          },
          {
            "id": "JHB001",
            "name": "Pick n Pay - Sandton City",
            "address": "Sandton City Shopping Centre, Sandton",
            "suburb": "Sandton",
            "city": "Johannesburg",
            "province": "Gauteng",
            "postal_code": "2196",
            "phone": "+27 11 784 7200",
            "hours": "Mon-Fri: 9:00-21:00, Sat-Sun: 9:00-19:00",
            "services": [
              "pickup",
              "collection",
              "returns"
            ]
          }
        ]
      },
      "customer": {
        "name": "Jane Smith",
        "phone": "27823456789",
        "email": "jane@example.com"
      }
    },
    "paxi": {
      "tracking_number": "PX202509028106",
      "status": "created",
      "estimated_delivery": "2025-09-04"
    }
  },
  "WA20250902120923": {
    "order_id": "WA20250902120923",
    "user_id": "web_user",
    "items": [
      {
        "name": "MacBook Pro M3",
        "price": 34999.0,
        "quantity": 1,
        "description": "Latest MacBook Pro with M3 chip",
        "id": "e20c8482",
        "added_at": "2025-09-02T12:09:12.942226"
      }
    ],
    "subtotal": 34999.0,
    "delivery_cost": 35.0,
    "total": 35034.0,
    "status": "pending",
    "created_at": "2025-09-02T12:09:23.201201",
    "delivery": {
      "type": "paxi_pickup",
      "pickup_point": {
        "pickup_points": [
          {
            "id": "CPT001",
            "name": "Pick n Pay - Claremont",
            "address": "Cavendish Square, Claremont, Cape Town",
            "suburb": "Claremont",
            "city": "Cape Town",
            "province": "Western Cape",
            "postal_code": "7708",
            "phone": "+27 21 674 4000",
            "hours": "Mon-Fri: 8:00-20:00, Sat: 8:00-18:00, Sun: 9:00-17:00",
            "services": [
              "pickup",
              "collection",
              "returns"
            ]
          },
          {
            "id": "CPT002",
            "name": "Shoprite - Wynberg",
            "address": "Maynardville Park, Wynberg, Cape Town",
            "suburb": "Wynberg",
            "city": "Cape Town",
            "province": "Western Cape",
            "postal_code": "7800",
            "phone": "+27 21 761 7000",
            "hours": "Mon-Sun: 8:00-20:00",
            "services": [
              "pickup",
              "collection"
            ]
          },
          {
            "id": "JHB001",
            "name": "Pick n Pay - Sandton City",
            "address": "Sandton City Shopping Centre, Sandton",
            "suburb": "Sandton",
            "city": "Johannesburg",
            "province": "Gauteng",
            "postal_code": "2196",
            "phone": "+27 11 784 7200",
            "hours": "Mon-Fri: 9:00-21:00, Sat-Sun: 9:00-19:00",
            "services": [
              "pickup",
              "collection",
              "returns"
            ]
          }
        ]
      },
      "customer": {
        "name": "Test Customer",
        "phone": "27812345678",
        "email": "test@example.com"
      }
    },
    "paxi": {
      "tracking_number": "PX202509027044",
      "status": "created",
      "estimated_delivery": "2025-09-04"
    }
  }
}